,City_ID,city,Cloudiness,Country,Date,Humidity,Lat,Lng,Max Temp,Wind Speed
0,3887127,Iquique,0,CL,1603843991,68,-20.22,-70.14,64.4,13.87
1,934322,Mahébourg,3,MU,1603843991,80,-20.41,57.7,70.0,1.99
2,1637001,Biak,99,ID,1603843775,67,-0.91,122.88,82.62,3.74
3,360630,Cairo,20,EG,1603843951,73,30.06,31.25,71.6,6.93
4,3833367,Ushuaia,40,AR,1603843840,39,-54.8,-68.3,46.4,8.05
5,1735106,George Town,20,MY,1603843992,94,5.41,100.34,77.0,3.36
6,2221046,Yabassi,64,CM,1603843992,91,4.46,9.97,74.98,0.16
7,3361934,Saldanha,100,ZA,1603843992,87,-33.01,17.94,59.0,2.24
8,2110227,Butaritari,98,KI,1603843993,66,3.07,172.79,80.98,4.43
9,1649150,Bengkulu,100,ID,1603843907,79,-3.8,102.27,77.59,3.02
10,3421765,Nanortalik,100,GL,1603843993,90,60.14,-45.24,30.42,4.25
11,3893726,Constitución,7,CL,1603843993,76,-35.33,-72.42,49.62,7.9
12,2027042,Batagay-Alyta,24,RU,1603843993,82,67.8,130.41,0.93,3.67
13,3652764,Puerto Ayora,98,EC,1603843848,93,-0.74,-90.35,68.0,3.0
14,5848280,Kapaa,75,US,1603843994,69,22.08,-159.32,82.99,5.82
15,4020109,Atuona,1,PF,1603843994,73,-9.8,-139.03,78.84,19.42
16,1791636,Weinan,90,CN,1603843995,100,34.5,109.51,52.0,4.47
17,3628473,San Cristobal,95,VE,1603843881,91,7.77,-72.22,68.29,0.49
18,2017155,Saskylakh,98,RU,1603843828,92,71.92,114.08,5.2,10.51
19,2022572,Khatanga,50,RU,1603843995,90,71.97,102.5,-5.46,10.6
20,964432,Port Alfred,36,ZA,1603843730,86,-33.59,26.89,63.82,14.79
21,5711847,Astoria,1,US,1603843711,71,46.19,-123.83,57.2,8.05
22,1106677,Bambous Virieux,4,MU,1603843836,80,-20.34,57.76,70.0,1.99
23,4030556,Rikitea,100,PF,1603843903,83,-23.12,-134.97,75.43,15.95
24,4034551,Faanui,71,PF,1603843997,82,-16.48,-151.75,79.75,17.76
25,6201424,Mataura,4,NZ,1603843814,67,-46.19,168.86,57.99,3.0
26,6170031,Tuktoyaktuk,90,CA,1603843917,85,69.45,-133.04,14.0,13.87
27,3137469,Sørland,56,NO,1603843998,65,67.67,12.69,46.71,9.06
28,6096551,Pangnirtung,0,CA,1603843998,76,66.15,-65.71,8.92,4.09
29,2618795,Klaksvík,92,FO,1603843779,86,62.23,-6.59,46.67,22.88
30,2643044,Margate,26,GB,1603843998,82,51.38,1.39,51.01,1.99
31,5546220,Saint George,1,US,1603843820,9,37.1,-113.58,60.8,4.25
32,3874787,Punta Arenas,0,CL,1603843999,61,-53.15,-70.92,46.4,16.11
33,3446619,Terenos,0,BR,1603843999,73,-20.44,-54.86,71.6,1.12
34,5880054,Barrow,75,US,1603843999,80,71.29,-156.79,30.2,21.92
35,2163355,Hobart,75,AU,1603843961,66,-42.88,147.33,57.99,9.17
36,1853371,Ryōtsu-minato,40,JP,1603844000,87,38.08,138.43,53.6,10.29
37,2264557,Ponta do Sol,40,PT,1603843758,68,32.67,-17.1,66.2,4.7
38,2121385,Severo-Kuril'sk,9,RU,1603844000,78,50.68,156.12,45.19,5.82
39,5855927,Hilo,90,US,1603843677,78,19.73,-155.09,80.6,8.14
40,1307741,Myitkyina,0,MM,1603844000,83,25.38,97.4,70.02,2.59
41,2074865,Carnarvon,0,AU,1603843833,73,-24.87,113.63,69.8,24.16
42,3531368,Celestún,100,MX,1603844001,86,20.87,-90.4,80.62,14.5
43,3146487,Raudeberg,89,NO,1603844001,79,61.99,5.14,46.0,11.5
44,1626703,Soe,61,ID,1603843945,68,-9.86,124.28,77.81,3.67
45,3366880,Hermanus,100,ZA,1603843905,93,-34.42,19.23,61.0,1.01
46,777019,Vardø,100,NO,1603843855,93,70.37,31.11,43.43,11.72
47,686090,Asău,8,RO,1603844002,98,46.43,26.4,50.0,1.41
48,2121025,Srednekolymsk,99,RU,1603844002,89,67.45,153.68,14.99,6.76
49,580676,Asekeyevo,88,RU,1603844003,92,53.57,52.8,30.42,1.7
50,4033557,Tautira,75,PF,1603844003,78,-17.73,-149.15,82.4,19.46
51,546105,Nikolskoye,90,RU,1603843836,87,59.7,30.79,52.0,8.95
52,2034691,Songjianghe,0,CN,1603844003,71,42.19,127.48,36.18,7.83
53,3939168,Huarmey,100,PE,1603844003,83,-10.07,-78.15,64.27,6.96
54,5367788,Lompoc,1,US,1603844004,40,34.64,-120.46,69.8,10.29
55,3372707,Ribeira Grande,99,PT,1603843842,61,38.52,-28.7,63.09,4.34
56,6185377,Yellowknife,75,CA,1603843717,67,62.46,-114.35,17.6,5.82
57,286621,Salalah,20,OM,1603843893,69,17.02,54.09,77.0,2.24
58,3115824,Muros,99,ES,1603844005,92,42.78,-9.06,59.0,7.11
59,4021858,Guerrero Negro,0,MX,1603844005,23,27.98,-114.06,70.48,22.88
60,3404558,Cabedelo,20,BR,1603844005,78,-6.98,-34.83,78.8,9.17
61,2090021,Namatanai,74,PG,1603843756,65,-3.67,152.43,86.09,1.88
62,255849,Pánormos,20,GR,1603844006,88,35.42,24.69,64.0,2.24
63,2381972,Adrar,0,MR,1603843813,16,20.5,-10.07,83.14,11.45
64,2514651,Los Llanos de Aridane,90,ES,1603843849,68,28.66,-17.92,69.8,10.29
65,1254046,Tura,0,IN,1603843918,86,25.52,90.22,68.22,4.07
66,7671223,Kloulklubed,75,PW,1603843784,83,7.04,134.26,82.4,3.36
67,1488048,Ulagan,86,RU,1603844007,81,50.63,87.96,30.18,5.14
68,935214,Saint-Pierre,0,RE,1603844007,64,-21.34,55.48,71.6,2.24
69,2446796,Bilma,0,NE,1603843777,24,18.69,12.92,69.17,3.6
70,6173331,Vancouver,90,CA,1603843907,81,49.25,-123.12,48.2,9.17
71,2980043,Arrondissement de Saint-Gaudens,75,FR,1603844008,93,43.08,0.67,53.6,5.82
72,2216432,Jadu,36,LY,1603844008,89,31.95,12.03,53.91,3.44
73,3369157,Cape Town,75,ZA,1603843900,87,-33.93,18.42,64.0,10.29
74,3517970,Pochutla,75,MX,1603844009,83,15.74,-96.47,78.8,0.89
75,2075265,Busselton,14,AU,1603843731,90,-33.65,115.33,59.0,1.01
76,3466704,Castro,0,BR,1603843728,63,-24.79,-50.01,60.71,3.83
77,2206939,Bluff,14,NZ,1603843903,67,-46.6,168.33,57.99,3.0
78,6089245,Norman Wells,40,CA,1603844010,79,65.28,-126.83,19.4,4.7
79,5282297,Bethel,90,US,1603843875,57,41.37,-73.41,51.8,3.36
80,2155415,New Norfolk,79,AU,1603844010,66,-42.78,147.06,57.99,3.96
81,2126710,Beringovskiy,71,RU,1603843844,92,63.05,179.32,27.45,11.79
82,3374083,Bathsheba,20,BB,1603844011,83,13.22,-59.52,80.6,14.99
83,3386213,Touros,40,BR,1603844011,83,-5.2,-35.46,78.8,9.17
84,1061335,Mananjary,20,MG,1603843746,93,-21.22,48.33,68.85,4.43
85,3443061,Chui,100,UY,1603844011,94,-33.7,-53.46,61.39,14.14
86,4035715,Avarua,100,CK,1603843840,78,-21.21,-159.78,73.4,6.93
87,3420768,Qasigiannguit,67,GL,1603844012,92,68.82,-51.19,5.76,2.3
88,3691954,Sechura,38,PE,1603844012,73,-5.56,-80.82,68.36,14.54
89,1507636,Chunskiy,96,RU,1603844012,96,56.08,99.63,31.82,4.38
90,240999,Alindao,97,CF,1603844013,93,5.03,21.21,71.51,1.9
91,107304,Buraidah,0,SA,1603844013,28,26.33,43.98,64.4,3.36
92,3894426,Coyhaique,90,CL,1603844013,93,-45.58,-72.07,41.0,8.05
93,5746545,Portland,20,US,1603843937,51,45.52,-122.68,59.0,1.63
94,2189343,Kaeo,83,NZ,1603843739,71,-35.1,173.78,68.02,5.23
95,5122534,Jamestown,90,US,1603843902,100,42.1,-79.24,41.0,3.49
96,5106841,Albany,100,US,1603843908,74,42.6,-73.97,48.0,3.87
97,4703078,Kerrville,90,US,1603844014,93,30.05,-99.14,36.0,8.05
98,2685750,Östersund,86,SE,1603844014,93,63.18,14.64,42.01,8.05
99,3674292,Mosquera,75,CO,1603843787,87,4.71,-74.23,57.2,3.36
100,2126785,Belaya Gora,92,RU,1603844015,93,68.53,146.42,6.71,5.48
101,2290836,Boundiali,90,CI,1603844015,58,9.52,-6.49,73.85,1.21
102,780687,Berlevåg,100,NO,1603843849,91,70.86,29.09,38.5,6.04
103,2025630,Chara,7,RU,1603844015,83,56.91,118.26,-0.2,0.51
104,4032243,Vaini,11,TO,1603843813,74,-21.2,-175.2,73.18,25.93
105,1651810,Airai,39,TL,1603844016,79,-8.93,125.41,70.07,2.73
106,2012956,Yerbogachën,81,RU,1603844016,97,61.28,108.01,17.17,4.83
107,2126199,Cherskiy,100,RU,1603843818,92,68.75,161.3,13.98,8.88
108,4031637,Lavrentiya,100,RU,1603843903,91,65.58,-171.0,30.54,9.86
109,259289,Corinth,49,GR,1603844017,60,37.94,22.96,59.0,1.01
110,5563839,Fortuna,1,US,1603843760,48,40.6,-124.16,63.0,10.29
111,935215,Saint-Philippe,0,RE,1603844017,64,-21.36,55.77,71.6,2.24
112,1015776,Bredasdorp,100,ZA,1603843746,82,-34.53,20.04,62.6,4.7
113,5970234,Hanna,91,CA,1603844018,57,51.63,-111.9,46.99,3.0
114,3355672,Lüderitz,13,NA,1603844018,78,-26.65,15.16,57.25,9.98
115,2119538,Yelizovo,93,RU,1603844018,75,53.19,158.38,42.8,4.47
116,2630299,Hofn,100,IS,1603844018,81,64.25,-15.21,38.03,20.98
117,3451138,Rio Grande,100,BR,1603843987,99,-32.03,-52.1,63.0,11.01
118,496358,Severnyy,0,RU,1603844019,80,50.68,36.55,39.2,8.95
119,2026160,Borogontsy,100,RU,1603844019,93,62.67,131.17,3.99,3.33
120,4031574,Provideniya,90,RU,1603843928,95,64.38,-173.3,32.0,11.18
121,3893629,Coquimbo,0,CL,1603843912,82,-29.95,-71.34,55.4,11.41
122,2374583,Bubaque,44,GW,1603844020,81,11.28,-15.83,82.33,11.05
123,4036284,Alofi,40,NU,1603844020,73,-19.06,-169.92,77.0,21.92
124,2132606,Samarai,26,PG,1603844020,79,-10.62,150.67,82.8,9.44
125,949224,Thohoyandou,0,ZA,1603844021,47,-22.95,30.48,69.22,1.88
126,3424607,Tasiilaq,100,GL,1603843743,91,65.61,-37.64,25.68,9.44
127,293992,Ofakim,56,IL,1603844021,100,31.31,34.62,70.0,4.34
128,6111867,Port Hawkesbury,90,CA,1603844021,86,45.62,-61.35,39.99,14.99
129,974933,Mogwase,0,ZA,1603844021,37,-25.18,27.27,73.2,4.29
130,5847411,Kahului,40,US,1603844022,62,20.89,-156.47,86.0,9.17
131,2033301,Youhao,0,CN,1603844022,82,47.87,128.83,34.12,5.84
132,3379507,Bartica,75,GY,1603843904,83,6.4,-58.62,80.6,6.93
133,2455290,Kidal,0,ML,1603844022,16,18.44,1.41,78.24,7.0
134,3471451,Arraial do Cabo,0,BR,1603843734,94,-22.97,-42.03,73.4,12.75
135,1153035,Kathu,40,TH,1603844023,83,7.92,98.33,86.0,5.82
136,933995,Souillac,4,MU,1603844023,80,-20.52,57.52,70.0,1.99
137,2155562,Nelson Bay,90,AU,1603843975,72,-32.72,152.15,66.99,8.05
138,2439376,Tahoua,0,NE,1603844023,29,14.89,5.27,77.0,2.24
139,1513491,Yangi Marg`ilon,98,UZ,1603844023,41,40.43,71.72,51.8,4.74
140,2065594,Mount Isa,0,AU,1603844024,11,-20.73,139.5,80.6,13.87
141,2136697,Lakatoro,75,VU,1603844024,69,-16.1,167.42,82.4,6.93
142,986717,Kruisfontein,29,ZA,1603843907,95,-34.0,24.73,59.0,8.57
143,4033356,Tiarei,75,PF,1603844024,78,-17.53,-149.33,82.4,19.46
144,2255564,Ouésso,98,CG,1603844025,96,1.61,16.05,70.03,2.21
145,3902377,La Santisima Trinidad,40,BO,1603844025,69,-14.83,-64.9,82.4,6.93
146,2636790,Stornoway,100,GB,1603844025,93,58.21,-6.39,42.8,2.24
147,3924610,Achacachi,14,BO,1603844025,68,-16.05,-68.68,49.44,1.34
148,3855075,General Pico,75,AR,1603844025,53,-35.66,-63.76,63.61,9.15
149,1819729,Hong Kong,96,HK,1603843984,73,22.29,114.16,77.0,1.01
150,3622716,Nicoya,75,CR,1603844026,88,10.15,-85.45,80.6,6.93
151,3664539,Coari,99,BR,1603844026,84,-4.08,-63.14,78.4,2.35
152,2640377,Penzance,61,GB,1603844026,81,50.12,-5.54,50.0,21.92
153,4231997,Avera,90,US,1603843869,83,33.19,-82.53,75.2,5.82
154,5288261,Camp Verde,0,US,1603844027,12,34.56,-111.85,60.01,8.39
155,2447513,Arlit,0,NE,1603844027,15,18.74,7.39,79.0,7.78
156,3466165,Cidreira,98,BR,1603843854,84,-30.18,-50.21,63.88,11.68
157,2070998,Geraldton,90,AU,1603843857,60,-28.77,114.6,68.0,17.22
158,3374333,Praia,96,CV,1603843829,83,14.92,-23.51,78.8,14.99
159,3883457,Lebu,98,CL,1603844028,82,-37.62,-73.65,50.72,12.3
160,1821993,Svay Rieng,100,KH,1603844028,86,11.09,105.8,77.23,10.0
161,4513583,Hamilton,90,US,1603843816,87,39.18,-84.53,51.01,3.83
162,5955902,Fort Nelson,75,CA,1603843807,74,58.81,-122.7,33.8,2.24
163,3576994,Cockburn Town,7,TC,1603843740,80,21.46,-71.14,82.29,20.65
164,2156643,Mount Gambier,18,AU,1603844029,67,-37.83,140.77,59.0,8.05
165,361058,Alexandria,40,EG,1603844029,60,31.22,29.96,73.4,4.7
166,6182001,Wilkie,90,CA,1603844029,66,52.42,-108.7,48.2,12.75
167,2208248,Kaitangata,2,NZ,1603843922,56,-46.28,169.85,54.97,6.67
168,139817,Bushehr,0,IR,1603844030,55,28.97,50.84,74.93,2.68
169,3383434,Nieuw Amsterdam,20,SR,1603844030,74,5.88,-55.08,84.2,9.17
170,2635199,Ullapool,100,GB,1603844030,61,57.9,-5.16,44.01,1.01
171,1168749,Nushki,0,PK,1603844031,50,29.55,66.02,48.79,1.16
172,1282256,Hithadhoo,99,MV,1603844031,66,-0.6,73.08,83.84,10.85
173,1261853,Narasannapeta,60,IN,1603844031,68,18.42,84.05,72.72,4.85
174,1268008,Kanniyākumāri,71,IN,1603843891,76,8.08,77.57,80.35,6.49
175,1218436,Saýat,38,TM,1603844032,61,38.78,63.88,41.86,11.34
176,1164076,Thal,1,PK,1603844032,55,35.48,72.24,42.84,4.85
177,3355595,Mariental,81,NA,1603844033,20,-24.63,17.97,73.87,2.51
178,2469252,Menzel Salem,0,TN,1603844033,87,35.86,8.48,42.8,2.24
179,3131500,Visnes,29,NO,1603844033,87,59.36,5.22,50.0,12.75
180,3388456,São José da Coroa Grande,57,BR,1603843838,79,-8.9,-35.15,76.89,10.67
181,2825297,Stuttgart,0,DE,1603844004,81,48.78,9.18,50.0,2.24
182,1185095,Teknāf,33,BD,1603844034,88,20.86,92.31,76.82,4.41
183,3899695,Ancud,90,CL,1603843914,93,-41.87,-73.82,48.0,14.99
184,2100765,Angoram,100,PG,1603844034,64,-4.06,144.07,88.12,1.92
185,6167817,Torbay,90,CA,1603843735,100,47.67,-52.73,39.99,12.75
186,1568574,Qui Nhon,100,VN,1603844035,84,13.77,109.23,75.47,53.37
187,5855051,‘Ewa Beach,1,US,1603843872,69,21.32,-158.01,82.4,4.43
188,3372760,Praia da Vitória,75,PT,1603844035,72,38.73,-27.07,62.6,5.99
189,1642773,Japura,100,ID,1603844036,93,-0.32,102.35,75.25,1.61
190,2109528,Buala,35,SB,1603844036,69,-8.14,159.59,85.98,6.08
191,3421719,Narsaq,100,GL,1603844036,97,60.92,-46.05,30.15,3.78
192,2215163,Masallātah,14,LY,1603844036,67,32.62,14.0,63.82,14.23
193,3668605,Santa Marta,20,CO,1603844037,74,11.24,-74.2,86.0,11.99
194,3421193,Paamiut,78,GL,1603844037,85,61.99,-49.67,27.57,18.45
195,296852,Erzin,30,TR,1603844037,67,36.96,36.2,75.99,4.0
196,156918,Kisiwani,85,TZ,1603844037,82,-4.13,37.95,69.67,3.18
197,3166262,Spilimbergo,20,IT,1603844037,92,46.11,12.9,50.0,6.2
198,3831208,Qaanaaq,94,GL,1603844038,79,77.48,-69.36,10.85,13.49
199,8060713,Rembang,85,ID,1603844038,80,-6.71,111.35,79.97,6.26
200,3379316,Lethem,54,GY,1603844038,58,3.38,-59.8,84.43,8.63
201,1797132,Rizhao,95,CN,1603844038,50,35.43,119.46,57.11,12.35
202,2137773,Vao,88,NC,1603844039,82,-22.67,167.48,73.2,18.86
203,2092164,Lorengau,94,PG,1603844039,63,-2.02,147.27,85.87,1.66
204,3430863,Mar del Plata,0,AR,1603843792,71,-38.0,-57.56,59.0,8.5
205,4663494,Tullahoma,90,US,1603844039,83,35.36,-86.21,71.6,5.82
206,249842,Buşayrā,39,JO,1603844039,68,30.74,35.61,56.57,0.36
207,4726521,San Patricio,90,US,1603844040,82,28.02,-97.52,55.4,13.87
208,3336897,La Rioja,0,ES,1603844040,93,42.25,-2.5,51.01,1.12
209,915471,Kalabo,52,ZM,1603844040,36,-14.97,22.68,75.67,2.84
210,3093028,Lubawa,81,PL,1603844040,90,53.5,19.75,46.99,1.99
211,3984997,San Quintín,0,MX,1603844041,32,30.48,-115.95,68.85,12.01
212,1486321,Yar-Sale,50,RU,1603843923,92,66.83,70.83,2.12,5.48
213,217570,Buta,100,CD,1603844041,97,2.79,24.73,70.11,1.14
214,5861897,Fairbanks,75,US,1603843832,86,64.84,-147.72,28.99,4.7
215,2112802,Hasaki,75,JP,1603843903,87,35.73,140.83,61.0,4.7
216,1003764,Frankfort,59,ZA,1603844042,46,-27.27,28.48,65.43,3.53
217,6165406,Thompson,75,CA,1603844042,62,55.74,-97.86,24.8,8.05
218,3839307,Rawson,71,AR,1603844042,33,-43.3,-65.1,59.52,12.48
219,261772,Íos,0,GR,1603844043,77,36.73,25.28,63.0,8.05
220,2449938,Ténenkou,97,ML,1603844043,15,14.46,-4.92,81.9,9.42
221,2122090,Pevek,100,RU,1603844043,97,69.7,170.31,20.44,13.73
222,3869716,Tocopilla,11,CL,1603844043,59,-22.09,-70.2,60.13,6.11
223,300796,Miepherkeim,0,TR,1603844043,41,38.14,41.01,46.4,2.24
224,2264923,Peniche,97,PT,1603844044,88,39.36,-9.38,62.01,8.99
225,6111862,Port Hardy,90,CA,1603843832,93,50.7,-127.42,48.2,5.82
226,305681,Kumluca,0,TR,1603844044,45,36.37,30.29,71.38,3.96
227,368246,Raja,94,SS,1603844044,87,8.46,25.68,72.01,6.71
228,1735902,Sibu,40,MY,1603844045,94,2.3,111.82,75.2,2.24
229,2512186,Puerto del Rosario,90,ES,1603843843,73,28.5,-13.86,69.8,12.75
230,3516148,Tecolutla,94,MX,1603844045,76,20.48,-97.02,79.09,9.01
231,2129218,Yoichi,40,JP,1603843991,93,43.2,140.77,42.8,4.7
232,567589,Chupa,100,RU,1603844046,89,66.27,33.05,43.27,7.27
233,2180815,Tuatapere,35,NZ,1603843815,67,-46.13,167.68,57.99,3.0
234,3194581,Našice,5,HR,1603844046,96,45.49,18.09,53.01,1.01
235,686967,Zhytomyr,1,UA,1603843858,90,50.26,28.68,48.79,5.88
236,1252783,Yārāda,99,IN,1603844047,60,17.65,83.27,80.51,8.12
237,2094342,Kavieng,95,PG,1603844047,65,-2.57,150.8,84.85,2.13
238,5924351,Clyde River,20,CA,1603843917,66,70.47,-68.59,12.2,6.93
239,2206874,Waipawa,99,NZ,1603844047,72,-41.41,175.52,60.01,12.75
240,1650527,Balikpapan,100,ID,1603844048,82,-1.27,116.83,79.75,3.89
241,1859964,Kaseda-shirakame,75,JP,1603844048,100,31.42,130.32,59.0,3.36
242,1490256,Talnakh,0,RU,1603844048,82,69.49,88.4,-4.52,5.48
243,3450843,Rubiataba,64,BR,1603843976,80,-15.16,-49.8,74.46,1.99
244,5557293,Sitka,90,US,1603844049,81,57.05,-135.33,46.4,6.93
245,3347019,Mossamedes,70,AO,1603843803,77,-15.2,12.15,71.26,4.34
246,1128239,Rūdbār,0,AF,1603844049,34,30.15,62.6,56.46,10.31
247,6117611,Rawdon,97,CA,1603844049,83,46.05,-73.72,32.0,3.36
248,53654,Mogadishu,98,SO,1603844049,80,2.04,45.34,79.86,7.38
249,556268,Ostrovnoy,100,RU,1603843886,91,68.05,39.51,43.41,21.85
250,3372964,Lagoa,100,PT,1603844050,61,39.05,-27.98,62.58,6.35
251,2157698,Mildura,0,AU,1603843919,59,-34.2,142.15,70.0,6.93
252,750938,Bayburt,100,TR,1603844050,50,40.26,40.23,48.42,2.93
253,3401845,Conceição do Araguaia,100,BR,1603844050,67,-8.26,-49.26,80.98,3.2
254,900056,Nyimba,1,ZM,1603844051,34,-14.56,30.81,79.25,9.82
255,1852357,Shimoda,40,JP,1603844051,72,34.67,138.95,64.4,9.17
256,609919,Quryq,0,KZ,1603844051,58,43.2,51.65,42.62,15.77
257,6690297,Saint-Leu,0,RE,1603844051,64,-21.15,55.28,71.6,2.24
258,158974,Issenye,95,TZ,1603844052,80,-2.0,34.33,67.5,4.25
259,2019867,Mokhsogollokh,100,RU,1603844052,93,61.47,128.92,8.58,4.14
260,1714733,Dingle,66,PH,1603843823,80,11.0,122.67,81.46,2.17
261,3418910,Upernavik,0,GL,1603843907,79,72.79,-56.15,16.84,5.88
262,1684245,Tagusao,97,PH,1603843933,74,9.19,117.81,81.5,5.64
263,5797693,Hoquiam,90,US,1603844053,87,46.98,-123.89,55.99,5.82
264,2126123,Chokurdakh,100,RU,1603843902,97,70.63,147.92,12.33,2.82
265,2016307,Solnechnyy,68,RU,1603844053,85,50.72,136.63,35.26,2.44
266,3516003,San Sebastián Tenango,40,MX,1603844053,45,18.65,-98.18,69.01,11.41
267,1524296,Esil,100,KZ,1603844053,96,51.96,66.4,27.34,16.78
268,3114711,Oviedo,78,ES,1603844054,80,43.36,-5.84,59.0,5.99
269,553766,Kamenka,85,RU,1603844054,79,51.32,42.77,34.86,9.91
270,2246901,Oussouye,0,SN,1603844054,94,12.48,-16.55,80.6,2.24
271,1626542,Sorong,95,ID,1603843871,80,-0.88,131.25,81.73,5.5
272,2194098,Ahipara,52,NZ,1603844054,61,-35.17,173.17,69.69,3.51
273,1623197,Tual,85,ID,1603843869,71,-5.67,132.75,84.0,10.8
274,1490796,Strezhevoy,40,RU,1603844055,85,60.73,77.59,12.2,8.95
275,3833883,Trelew,76,AR,1603844055,30,-43.25,-65.31,59.58,9.22
276,3466980,Caravelas,82,BR,1603843824,88,-17.71,-39.25,77.5,10.89
277,3002510,Le Pradet,0,FR,1603844056,66,43.11,6.02,55.99,3.36
278,1246294,Galle,65,LK,1603844056,86,6.04,80.22,78.04,4.68
279,1062663,Mahajanga,20,MG,1603844056,78,-15.72,46.32,71.6,2.24
280,3382160,Cayenne,0,GF,1603844057,78,4.93,-52.33,82.4,4.7
281,6049403,Langham,90,CA,1603844057,57,52.37,-106.97,50.0,14.99
282,5905616,Bonnyville,75,CA,1603844057,65,54.27,-110.73,44.6,16.11
283,2654728,Bridlington,32,GB,1603844057,82,54.08,-0.19,45.0,15.01
284,1488414,Urengoy,0,RU,1603843921,89,65.97,78.37,-1.01,10.18
285,3470137,Belmonte,40,BR,1603843903,78,-15.86,-38.88,78.8,9.17
286,1496511,Novy Urengoy,0,RU,1603844058,89,66.08,76.63,-1.89,9.1
287,3934707,Mollendo,78,PE,1603844058,78,-17.02,-72.01,62.42,6.33
288,2338660,Yaan,5,NG,1603844059,80,7.38,8.57,75.61,4.25
289,2032614,Baruun-Urt,0,MN,1603844059,76,46.68,113.28,27.45,6.96
290,337405,Gambēla,47,ET,1603844059,78,8.25,34.58,70.74,3.42
291,2028462,Ulaanbaatar,0,MN,1603843988,85,47.91,106.88,10.4,2.24
292,3670199,San Antero,21,CO,1603844060,83,9.37,-75.76,80.17,6.33
293,2036033,Liuhe,0,CN,1603844060,63,42.24,125.72,38.35,4.97
294,2109701,Auki,57,SB,1603844060,63,-8.77,160.7,87.3,3.33
295,2138555,Poum,74,NC,1603844061,73,-20.23,164.02,77.27,13.11
296,2112309,Katsuura,75,JP,1603844061,72,35.13,140.3,64.99,5.82
297,779350,Karasjok,100,NO,1603844061,93,69.47,25.51,32.0,14.99
298,5392126,San Joaquin,1,US,1603844061,20,37.93,-121.3,73.4,6.93
299,5972291,Havre-St-Pierre,1,CA,1603844061,86,50.23,-63.6,30.2,5.82
300,529368,Marfino,0,RU,1603844062,86,55.7,37.38,46.0,6.71
301,108410,Riyadh,0,SA,1603844062,36,24.69,46.72,62.6,2.55
302,3357804,Eenhana,91,NA,1603844062,16,-17.47,16.33,84.2,6.93
303,2063042,Port Hedland,40,AU,1603843885,69,-20.32,118.57,78.8,2.24
304,4031742,Egvekinot,99,RU,1603844062,92,66.32,-179.17,19.29,3.15
305,5364271,Laguna,1,US,1603843851,18,38.42,-121.42,75.99,3.36
306,286987,Nizwá,2,OM,1603844063,60,22.93,57.53,63.18,1.95
307,2294915,Takoradze,100,GH,1603844063,87,4.88,-1.76,78.04,8.03
308,6355222,Yulara,0,AU,1603843886,17,-25.24,130.99,75.2,6.93
309,3985710,Cabo San Lucas,40,MX,1603844063,57,22.89,-109.91,80.6,9.17
310,3705652,Loma Bonita,59,PA,1603844064,99,8.38,-80.17,84.0,0.83
311,5787423,Black Diamond,81,US,1603844064,69,47.31,-122.0,57.0,1.43
312,3451234,Rio Claro,0,BR,1603843655,50,-22.41,-47.56,78.8,5.82
313,1529376,Korla,0,CN,1603844065,93,41.76,86.15,39.0,4.61
314,2122389,Ossora,78,RU,1603844065,83,59.24,163.07,34.95,6.91
315,964420,Port Elizabeth,0,ZA,1603844065,82,-33.92,25.57,62.6,19.46
316,2084442,Vanimo,91,PG,1603844065,66,-2.67,141.3,85.53,2.24
317,3933104,Pangoa,100,PE,1603844065,95,-12.12,-73.0,70.68,1.57
318,2127060,Arman',0,RU,1603844066,76,59.7,150.17,32.76,4.59
319,1688696,San Policarpo,39,PH,1603844066,73,12.18,125.51,83.19,2.44
320,5110365,Broome,90,US,1603844066,75,42.25,-75.83,46.99,3.06
321,2018735,Nyurba,100,RU,1603843878,87,63.28,118.33,11.53,3.87
322,5866583,Saint Paul Harbor,40,US,1603843912,68,57.79,-152.41,46.4,6.93
323,4034496,Fare,76,PF,1603844067,81,-16.7,-151.02,80.42,18.97
324,2134814,Sola,35,VU,1603843902,77,-13.88,167.55,80.15,17.85
325,2641598,Newport,1,GB,1603843774,94,51.59,-3.0,48.0,1.99
326,3939123,Huasahuasi,97,PE,1603844067,90,-11.32,-75.62,43.97,2.98
327,2501152,Constantine,40,DZ,1603843946,87,36.37,6.61,48.2,2.24
328,2332453,Lagos,89,NG,1603844068,90,6.58,3.75,77.11,2.84
329,4417205,Bay Saint Louis,90,US,1603844068,88,30.31,-89.33,80.6,9.17
330,3938451,Ilave,48,PE,1603844068,34,-16.08,-69.67,53.46,12.26
331,2441526,Madarounfa,0,NE,1603844068,17,13.31,7.16,79.34,7.72
332,2063036,Port Lincoln,0,AU,1603843826,62,-34.73,135.87,62.29,7.25
333,203717,Yangambi,100,CD,1603844069,97,0.81,24.43,71.35,0.6
334,1150965,Ranong,99,TH,1603844069,83,9.97,98.63,79.29,6.29
335,2015306,Tiksi,27,RU,1603844069,90,71.69,128.87,-2.78,12.59
336,1045114,Inhambane,17,MZ,1603843777,89,-23.86,35.38,72.03,7.67
337,1503037,Kodinsk,100,RU,1603844070,97,58.69,99.18,26.71,8.25
338,6145890,Shelburne,90,CA,1603844070,100,44.08,-80.2,37.99,2.24
339,3614835,Barra Patuca,92,HN,1603844070,81,15.8,-84.28,81.07,9.73
340,3392126,Pilar,40,BR,1603844071,83,-9.6,-35.96,77.0,6.93
341,777073,Vadsø,90,NO,1603844071,100,70.07,29.75,35.6,8.05
342,2206895,Greymouth,98,NZ,1603844071,69,-42.47,171.2,57.43,6.33
343,5418104,Cortez,1,US,1603844071,28,37.35,-108.59,46.4,9.17
344,5983720,Iqaluit,90,CA,1603844071,73,63.75,-68.51,19.4,3.36
345,1006984,East London,35,ZA,1603844072,80,-33.02,27.91,68.79,16.64
346,4174715,Tallahassee,20,US,1603843933,88,30.44,-84.28,78.8,3.36
347,3906466,Riberalta,75,BO,1603844072,100,-10.98,-66.1,73.4,1.07
348,6137462,Saint-Augustin,82,CA,1603844072,90,51.23,-58.65,31.24,3.87
349,5600685,Meridian,1,US,1603844021,33,43.61,-116.39,57.2,6.93
350,3430443,Necochea,56,AR,1603844073,79,-38.55,-58.74,57.99,8.01
351,5295143,Fortuna Foothills,1,US,1603844073,6,32.66,-114.41,71.6,6.93
352,2511180,Santa Cruz de La Palma,90,ES,1603844074,68,28.68,-17.76,69.8,10.29
353,3939761,Hualmay,87,PE,1603843835,85,-11.1,-77.61,63.77,6.96
354,6050066,La Ronge,90,CA,1603844074,92,55.1,-105.28,26.6,9.17
355,1805733,Jinchang,95,CN,1603844074,77,38.5,102.17,37.99,3.94
356,613988,Khashuri,71,GE,1603844075,57,41.99,43.6,53.62,7.65
357,6148373,Sioux Lookout,90,CA,1603844075,86,50.1,-91.92,26.6,13.87
358,2123814,Leningradskiy,7,RU,1603844075,90,69.38,178.42,19.24,18.48
359,2454955,Kolokani,87,ML,1603844075,19,13.57,-8.03,75.61,1.95
360,3836873,San Miguel de Tucumán,0,AR,1603843996,29,-26.82,-65.22,87.8,16.11
361,1704644,Mabay,100,PH,1603844076,74,6.06,124.47,80.35,5.84
362,1786855,Yatou,51,CN,1603844076,46,37.15,122.38,57.34,10.89
363,611219,Vani,0,GE,1603844076,49,42.08,42.52,68.0,31.09
364,2120769,Talaya,0,RU,1603843928,86,61.38,152.75,17.6,2.55
365,1040652,Maputo,40,MZ,1603844077,88,-25.97,32.59,75.2,5.82
366,3671450,Inírida,98,CO,1603843794,93,3.87,-67.92,77.38,3.56
367,3416888,Grindavik,0,IS,1603843948,56,63.84,-22.43,41.0,24.16
368,3520994,Puerto Escondido,90,MX,1603843912,69,15.85,-97.07,78.8,3.36
369,477940,Ust-Tsilma,100,RU,1603844078,96,65.44,52.15,36.59,6.29
370,2181133,Pareora,85,NZ,1603844078,55,-44.49,171.21,61.0,5.99
371,3663475,Maraã,100,BR,1603844078,95,-1.83,-65.37,76.26,1.97
372,934479,Grand Gaube,0,MU,1603844078,80,-20.01,57.66,70.0,1.99
373,3445764,Unaí,71,BR,1603844079,73,-16.36,-46.91,77.14,3.71
374,3932502,Perené,90,PE,1603844079,74,-10.95,-75.23,75.15,1.07
375,2260401,Djambala,100,CG,1603844079,98,-2.54,14.75,69.1,3.8
376,3662489,Santa Isabel Rio Negro,100,BR,1603844079,87,-0.41,-65.02,78.17,2.89
377,307864,Kilis,0,TR,1603844079,36,36.72,37.12,60.8,1.12
378,1811542,Fangshan,100,CN,1603844080,35,39.7,115.99,55.99,0.96
379,2527087,Tiznit Province,3,MA,1603844080,63,29.58,-9.5,61.88,0.6
380,1529484,Kumul,0,CN,1603843820,52,42.8,93.45,42.89,7.94
381,1632694,Pangkalanbuun,100,ID,1603844080,89,-2.68,111.62,77.77,1.41
382,3887344,Illapel,100,CL,1603844080,59,-31.63,-71.17,56.48,4.09
383,2521582,Arona,20,ES,1603844081,60,28.1,-16.68,72.0,11.41
384,1242110,Kalmunai,44,LK,1603844081,83,7.42,81.82,78.39,6.85
385,3980230,Viesca,40,MX,1603844081,11,25.35,-102.8,95.0,13.09
386,3995154,Nadadores,45,MX,1603844081,45,27.05,-101.6,55.17,8.68
387,2018553,Ol'ga,80,RU,1603844082,74,43.74,135.29,46.13,2.66
388,2349431,Sabla,14,NG,1603844082,18,12.75,4.71,77.34,4.74
389,2067089,Maningrida,67,AU,1603844082,52,-12.07,134.27,88.79,3.06
390,3423146,Ilulissat,60,GL,1603844082,90,69.22,-51.1,6.82,3.04
391,656820,Iisalmi,100,FI,1603844082,93,63.56,27.19,48.2,2.24
392,1517323,Zhanakorgan,4,KZ,1603844083,85,43.91,67.25,29.46,5.28
393,64814,Bandarbeyla,34,SO,1603844083,81,9.49,50.81,74.91,3.4
394,5882953,Aklavik,90,CA,1603844083,85,68.22,-135.01,12.2,4.07
395,1259385,Port Blair,85,IN,1603843834,79,11.67,92.75,79.57,3.13
396,702486,Liubar,24,UA,1603844084,92,49.92,27.76,49.98,6.46
397,3440777,Rocha,100,UY,1603844084,88,-34.48,-54.33,57.83,10.94
398,1733432,Kota Kinabalu,20,MY,1603843927,78,5.97,116.07,77.0,5.82
399,1635882,Mataram,99,ID,1603844084,74,-8.58,116.12,81.1,7.67
400,5962442,Goderich,100,CA,1603843922,78,43.75,-81.72,43.0,10.78
401,4863349,Keokuk,90,US,1603844085,64,40.4,-91.38,39.0,3.29
402,3374210,São Filipe,100,CV,1603844085,72,14.9,-24.5,81.0,5.12
403,4838652,Milford,75,US,1603843957,54,41.22,-73.06,55.4,8.05
404,2158767,Mareeba,20,AU,1603843865,58,-17.0,145.43,84.2,9.17
405,1328421,Pathein,19,MM,1603844086,91,16.78,94.73,74.88,2.89
406,2963370,Killarney,84,IE,1603844086,82,52.05,-9.52,43.93,11.39
407,2129324,Makubetsu,75,JP,1603844086,81,45.37,141.82,48.2,9.17
408,2077895,Alice Springs,0,AU,1603844080,14,-23.7,133.88,75.2,6.93
409,3388437,São José do Campestre,40,BR,1603844086,78,-6.32,-35.71,78.8,6.93
410,1730622,Anito,22,PH,1603843957,70,12.45,125.29,84.47,1.39
411,5975004,High Level,90,CA,1603844087,100,58.52,-117.14,28.4,5.82
412,1260206,Pāsighāt,0,IN,1603843804,65,28.07,95.33,68.31,3.44
413,157429,Kilindoni,3,TZ,1603844087,83,-7.91,39.67,78.06,10.09
414,1800498,Mingshui,94,CN,1603844087,67,36.72,117.5,57.99,3.15
415,594693,Šilalė,99,LT,1603844088,91,55.49,22.18,47.7,8.16
416,1079048,Ambovombe,5,MG,1603844088,89,-25.17,46.08,70.25,13.62
417,498295,Savinka,3,RU,1603844088,88,50.08,47.1,32.52,7.31
418,1519924,Kushmurun,100,KZ,1603844088,95,52.45,64.63,26.08,17.92
419,3421982,Maniitsoq,9,GL,1603844089,87,65.42,-52.9,20.77,7.07
420,1507390,Dikson,100,RU,1603844089,95,73.51,80.55,6.04,17.29
421,172515,Abu Samrah,58,SY,1603844089,21,35.3,37.18,71.6,3.58
422,3870243,Taltal,16,CL,1603843820,75,-25.4,-70.48,58.51,4.74
423,2097418,Finschhafen,75,PG,1603843846,66,-6.6,147.87,85.24,7.81
424,3992967,Peñón Blanco,0,MX,1603844090,34,24.79,-104.04,71.33,16.98
425,4047434,Russell,90,US,1603844090,94,32.35,-85.2,73.4,6.93
426,2027316,Ayan,99,RU,1603844090,91,56.45,138.17,33.98,9.95
427,3981432,Todos Santos,40,MX,1603844090,52,23.45,-110.22,82.0,8.01
428,605155,Kiruna,90,SE,1603844091,100,67.86,20.23,24.8,3.36
429,3698359,Chicama,69,PE,1603844091,79,-7.84,-79.15,65.26,5.44
430,1485286,Zelenoborsk,97,RU,1603844092,97,61.47,64.03,21.99,4.29
431,3932145,Pisco,0,PE,1603844092,77,-13.7,-76.22,64.4,19.46
432,3468553,Cacequi,0,BR,1603844092,70,-29.88,-54.83,59.29,5.08
433,1337605,Mahibadhoo,83,MV,1603843850,77,3.78,72.97,82.29,11.16
434,3661944,Tefé,90,BR,1603844093,83,-3.35,-64.71,77.0,6.93
435,2028164,Deputatsky,64,RU,1603844093,93,69.3,139.9,0.19,5.7
436,2239862,Malanje,100,AO,1603844093,99,-9.54,16.34,65.8,5.14
437,141736,Bam,0,IR,1603844093,28,29.11,58.36,60.08,9.8
438,4032420,Neiafu,26,TO,1603844093,78,-18.65,-173.98,76.1,20.36
439,1687894,Santa Rosa,40,PH,1603844094,78,14.31,121.11,84.99,3.36
440,863061,Usinsk,100,RU,1603844094,98,65.99,57.53,28.98,15.17
441,1625929,Sungai Penuh,92,ID,1603844094,82,-2.08,101.38,66.51,1.19
442,1272864,Dhārchula,0,IN,1603844095,39,29.85,80.53,51.64,4.54
443,3622537,Parrita,75,CR,1603844095,94,9.52,-84.32,71.6,4.7
444,1272856,Dharmadam,11,IN,1603844095,79,11.78,75.43,75.31,4.63
445,2093685,Kokopo,23,PG,1603843807,62,-4.35,152.26,85.91,6.78
446,2032201,Bulgan,1,MN,1603844096,78,48.81,103.53,32.13,2.13
447,1812256,Dongsheng,100,CN,1603844096,60,39.82,109.98,36.21,3.91
448,292968,Abu Dhabi,0,AE,1603843867,65,24.47,54.37,77.0,4.7
449,566456,Dergachi,6,RU,1603844096,92,51.23,48.77,30.99,3.65
450,1039854,Matola,40,MZ,1603844096,88,-25.96,32.46,75.2,5.82
451,2990473,Arrondissement de Nevers,100,FR,1603844097,93,46.92,3.33,54.0,4.0
452,4430400,Horn Lake,90,US,1603844097,77,34.96,-90.03,60.8,10.29
453,1529102,Ürümqi,0,CN,1603844097,51,43.8,87.6,37.4,4.47
454,4946620,Palmer,100,US,1603844097,88,42.16,-72.33,50.0,2.35
455,2128975,Nemuro,75,JP,1603844098,76,43.32,145.57,50.0,2.24
456,2523082,Syracuse,0,IT,1603844070,67,37.09,15.28,60.01,10.29
457,110690,Faya,0,SA,1603843817,26,18.39,42.45,55.4,5.12
458,3380290,Sinnamary,20,GF,1603844098,80,5.38,-52.95,80.38,10.45
459,2629833,Husavik,90,IS,1603844099,64,66.04,-17.34,37.4,8.05
460,1502073,Krasnosel'kup,0,RU,1603844099,88,65.7,82.47,-1.44,15.26
461,102651,Şabyā,0,SA,1603844099,62,17.15,42.63,84.2,5.82
462,1802618,Longhua,31,CN,1603844099,63,23.61,114.19,72.19,3.22
463,201521,Ruhengeri,87,RW,1603844100,85,-1.5,29.64,59.43,0.94
464,1525376,Bestöbe,72,KZ,1603844100,95,52.5,73.1,29.43,20.94
465,3174050,Province of Mantua,0,IT,1603844100,93,45.17,10.78,46.99,4.7
466,2510573,Teguise,75,ES,1603844100,73,29.06,-13.56,69.8,10.29
467,1292037,Thayetmyo,70,MM,1603844101,94,19.32,95.18,74.95,1.88
468,1252795,Yanam,74,IN,1603844101,69,16.73,82.22,75.92,3.47
469,5972762,Hay River,75,CA,1603844101,85,60.82,-115.8,23.0,6.93
470,3414079,Olafsvik,96,IS,1603844102,71,64.89,-23.71,39.11,17.98
471,366444,Tambura,100,SS,1603844102,92,5.6,27.47,69.08,2.08
472,1525988,Ayagoz,82,KZ,1603843957,70,47.97,80.44,34.23,17.34
473,1250161,Batticaloa,21,LK,1603844104,81,7.71,81.69,78.8,5.73
474,5991888,Killam,100,CA,1603844103,70,52.78,-111.85,43.0,7.0
475,2960935,County Wicklow,40,IE,1603844105,81,53.0,-6.42,46.0,21.92
476,286245,Sur,0,OM,1603844106,60,22.57,59.53,71.28,3.89
477,1512101,Agirish,99,RU,1603843926,98,61.92,63.02,22.33,5.53
478,700607,Murovane,0,UA,1603844106,83,49.52,22.94,46.99,8.99
479,315367,Erzurum Province,0,TR,1603843812,69,40.0,41.5,33.8,1.36
480,3388847,São Félix do Xingu,83,BR,1603844107,75,-6.64,-51.99,77.38,1.79
481,1255647,Srikakulam,58,IN,1603844107,69,18.3,83.9,72.84,5.17
482,1002145,George,0,ZA,1603844107,87,-33.96,22.46,57.2,4.7
483,1258269,Rāzole,70,IN,1603844107,80,16.48,81.83,73.33,3.8
484,2219235,Ubari,0,LY,1603844108,26,26.59,12.78,67.64,7.96
485,3357247,Gobabis,89,NA,1603844108,39,-22.45,18.97,71.76,6.64
486,2644037,Llangefni,30,GB,1603844006,81,53.26,-4.31,52.0,17.22
487,4907131,Rantoul,90,US,1603844109,100,40.31,-88.16,39.2,4.21
488,2514334,Madridejos,61,ES,1603844109,86,39.47,-3.53,48.0,2.66
489,2059470,Victor Harbor,0,AU,1603844109,78,-35.57,138.62,61.0,1.99
490,3448533,São Marcos,75,BR,1603844110,87,-28.97,-51.07,57.2,6.93
491,3835869,Santiago del Estero,0,AR,1603844110,31,-27.8,-64.26,80.91,10.83
492,1731248,Alugan,36,PH,1603843974,72,12.22,125.48,83.32,2.35
493,1637001,Luwuk,98,ID,1603843848,61,-0.95,122.79,84.36,3.6
494,1510421,Belozërskoye,71,RU,1603844111,94,55.82,65.58,23.36,12.17
495,2742765,Areosa,75,PT,1603844111,100,41.72,-8.86,63.0,2.24
496,1491977,Shumskiy,93,RU,1603844111,86,54.83,99.13,33.55,5.84
497,630166,Berëzovka,96,BY,1603844111,88,53.72,25.5,52.72,11.03
498,2071860,Esperance,66,AU,1603844112,100,-33.87,121.9,62.6,10.29
499,3356832,Henties Bay,59,NA,1603843841,87,-22.12,14.28,59.0,1.01
500,6164499,The Pas,90,CA,1603844112,79,53.83,-101.25,28.4,3.36
501,3991350,Puerto Palomas,90,MX,1603844113,100,31.77,-107.62,30.2,8.05
502,88834,Tūkrah,53,LY,1603843931,58,32.53,20.58,72.55,12.62
503,2021031,Kyren,30,RU,1603844113,85,51.68,102.14,32.65,2.71
504,4787534,Sterling,90,US,1603844113,82,39.01,-77.43,61.0,4.7
505,610298,Beyneu,0,KZ,1603844114,90,45.32,55.2,28.15,4.85
506,4470244,Havelock,40,US,1603844115,88,34.88,-76.9,68.0,5.82
507,4005870,General Cepeda,40,MX,1603844115,53,25.38,-101.45,71.6,5.82
508,6690296,Saint-Joseph,0,RE,1603843846,64,-21.37,55.62,71.6,3.36
509,3393692,Itarema,74,BR,1603843939,81,-2.92,-39.92,78.35,12.86
510,3838859,Río Gallegos,75,AR,1603843882,29,-51.62,-69.22,51.8,10.29
511,1257551,Samāstipur,0,IN,1603844079,48,25.85,85.78,68.34,1.81
512,1529660,Aksu,48,CN,1603844116,58,41.12,80.26,41.4,2.42
513,4013679,Coahuayana Viejo,75,MX,1603844117,78,18.73,-103.68,80.6,11.41
514,538061,Kuybyshevo,40,RU,1603844117,59,47.81,38.91,49.32,14.67
515,2377450,Nouakchott,5,MR,1603843821,13,18.09,-15.98,80.6,4.7
516,3513563,Kralendijk,26,BQ,1603843919,77,12.15,-68.27,83.34,19.1
517,2276492,Harper,38,LR,1603844118,88,4.38,-7.72,77.9,9.17
518,491019,Sol'-Iletsk,14,RU,1603844118,92,51.16,54.99,29.59,5.77
519,1267390,Kavaratti,89,IN,1603844119,75,10.57,72.64,81.46,6.69
520,609906,Fort-Shevchenko,0,KZ,1603843944,59,44.51,50.26,43.18,19.04
521,2328617,Numan,29,NG,1603844120,35,9.47,12.03,76.3,0.49
522,2377457,Nouadhibou,100,MR,1603844121,60,20.93,-17.03,75.2,18.34
523,2729907,Longyearbyen,75,SJ,1603843837,94,78.22,15.64,32.0,4.7
524,1489853,Tazovsky,0,RU,1603844122,89,67.47,78.7,-3.73,7.9
525,2412408,Nioro,0,GM,1603844122,60,13.35,-15.75,76.57,3.49
526,610529,Atyrau,0,KZ,1603843839,68,47.12,51.88,26.6,8.95
527,4260977,Marion,90,US,1603844123,93,39.77,-86.16,46.0,4.7
528,2021644,Kraskino,1,RU,1603844123,52,42.71,130.78,46.04,16.31
529,2127202,Anadyr,40,RU,1603844504,85,64.75,177.48,17.6,4.47
530,2331447,Maiduguri,6,NG,1603844124,19,11.85,13.16,77.45,6.73
531,3461425,Ilhabela,53,BR,1603843989,84,-23.78,-45.36,72.86,7.43
532,5969025,Haines Junction,48,CA,1603843851,93,60.75,-137.51,30.79,2.62
533,2191562,Dunedin,0,NZ,1603844125,67,-45.87,170.5,53.01,21.99
534,1268344,Kalmeshwar,20,IN,1603844125,82,21.23,78.9,66.2,2.59
535,3456164,Nova Granada,20,BR,1603844126,44,-20.53,-49.31,78.8,3.36
536,1634614,Nabire,100,ID,1603844126,84,-3.37,135.48,77.58,3.44
537,2079582,Alyangula,81,AU,1603843909,62,-13.85,136.42,87.8,4.7
538,1644605,Galesong,20,ID,1603844127,88,-5.32,119.37,78.8,2.24
539,2122605,Okhotsk,1,RU,1603844127,82,59.38,143.3,29.62,7.83
540,1861285,Itoigawa,94,JP,1603844128,92,37.03,137.85,51.01,0.98
541,3405051,Borba,95,BR,1603844128,95,-4.39,-59.59,74.79,1.54
542,525426,Sobolevo,11,RU,1603844129,85,54.43,31.9,43.48,9.64
543,72181,Marzuq,88,YE,1603844129,30,14.4,46.47,59.65,3.11
544,5411479,Alamosa,90,US,1603844129,79,37.47,-105.87,26.6,5.82
545,1337610,Thinadhoo,68,MV,1603844130,68,0.53,72.93,83.3,10.22
546,74185,Jiblah,20,YE,1603844131,41,13.92,44.15,55.2,3.13
547,338345,Edd,0,ER,1603844131,43,13.93,41.69,81.86,14.25
548,3445418,Vazante,50,BR,1603844115,69,-17.99,-46.91,76.53,4.27
549,2635442,Troon,40,GB,1603844131,81,55.54,-4.66,48.0,10.29
550,5849297,Kīhei,40,US,1603844132,62,20.79,-156.47,86.0,9.17
551,2036713,Huanren,0,CN,1603844133,61,41.26,125.37,41.86,2.73
552,1733874,Beaufort,20,MY,1603844133,94,5.35,115.75,77.0,2.06
553,3837213,San Juan,37,AR,1603844134,21,-31.54,-68.54,74.57,19.19
554,676087,Hoghiz,91,RO,1603844134,91,45.98,25.3,42.01,1.01
555,2120047,Ust'-Omchug,0,RU,1603844135,85,61.15,149.63,19.09,1.21
556,5380437,Pacific Grove,1,US,1603844135,13,36.62,-121.92,73.4,5.82
557,3421319,Nuuk,0,GL,1603843945,79,64.18,-51.72,24.01,5.99
558,2460954,Araouane,0,ML,1603844136,14,18.9,-3.53,84.52,3.04
559,687196,Zhovti Vody,0,UA,1603844136,81,48.35,33.5,44.6,6.71
560,2057087,Kupang,18,ID,1603844101,67,-10.17,123.58,85.03,5.91
